,City,Cloudiness,Country,Date,Humidity,Lat,Lng,Max Temp,Wind Speed
0,rikitea,48,PF,1552433324.0,100.0,-23.12,-134.97,299.04,8.43
1,tumannyy,,,,,,,,
2,beringovskiy,0,RU,1552433464.0,90.0,63.05,179.32,253.215,9.98
3,cambridge,20,GB,1552433391.0,75.0,52.2,0.12,278.71,9.8
4,mataura,92,NZ,1552432805.0,90.0,-46.19,168.86,287.59,7.6
5,igrim,76,RU,1552433471.0,97.0,63.19,64.42,272.24,1.36
6,pionerskiy,88,RU,1552433473.0,94.0,61.2,62.86,272.89,1.81
7,nikolskoye,75,RU,1552433435.0,86.0,59.7,30.79,270.15,3.0
8,saskylakh,68,RU,1552433293.0,79.0,71.97,114.09,252.815,5.26
9,avarua,68,CK,1552431600.0,74.0,-21.21,-159.78,301.15,4.6
10,isny,,,,,,,,
11,port alfred,0,ZA,1552433421.0,96.0,-33.59,26.89,291.48,5.41
12,cherskiy,44,RU,1552433308.0,81.0,68.75,161.3,252.615,1.28
13,doctor pedro p. pena,,,,,,,,
14,hobart,8,AU,1552433240.0,55.0,-42.88,147.33,287.59,0.89
15,vaini,0,IN,1552433371.0,85.0,15.34,74.49,290.215,0.93
16,mitu,0,IR,1552433494.0,74.0,36.2,46.09,265.815,0.91
17,tonekabon,0,IR,1552431600.0,87.0,36.82,50.88,283.15,2.1
18,beira,40,ES,1552433493.0,81.0,43.2,-8.36,284.26,2.6
19,port hardy,75,CA,1552431600.0,75.0,50.7,-127.42,280.15,3.6
20,yellowknife,90,CA,1552432838.0,78.0,62.45,-114.38,264.26,7.2
21,asau,,,,,,,,
22,ushuaia,20,AR,1552431600.0,90.0,-54.81,-68.31,281.15,2.1
23,ulaangom,0,MN,1552433510.0,44.0,49.98,92.07,252.665,1.03
24,araioses,20,BR,1552433512.0,87.0,-2.89,-41.91,299.465,4.03
25,sur,0,OM,1552433514.0,100.0,22.57,59.53,293.29,7.56
26,kapaa,40,US,1552433309.0,65.0,22.08,-159.32,299.15,7.2
27,flinders,90,AU,1552433426.0,63.0,-34.58,150.85,293.71,3.6
28,zelenoborsk,88,RU,1552433520.0,96.0,61.47,64.05,273.04,2.18
29,mpika,48,ZM,1552433523.0,92.0,-11.84,31.4,288.64,0.93
30,dikson,48,RU,1552433525.0,84.0,73.51,80.55,254.04,3.68
31,jamestown,12,AU,1552433527.0,82.0,-33.21,138.6,288.89,1.91
32,valdepenas,0,ES,1552433426.0,62.0,38.76,-3.38,286.15,3.6
33,nanma,48,CN,1552433532.0,40.0,35.7,113.14,271.49,0.98
34,at-bashi,12,KG,1552433534.0,79.0,41.17,75.81,259.615,1.46
35,carnarvon,0,ZA,1552433536.0,64.0,-30.97,22.13,280.515,1.33
36,lompoc,0,US,1552433012.0,72.0,34.64,-120.46,292.59,9.3
37,butaritari,92,KI,1552433540.0,100.0,3.07,172.79,298.915,5.06
38,codrington,68,AU,1552433288.0,58.0,-28.95,153.24,301.15,2.6
39,geraldton,75,CA,1552431600.0,59.0,49.72,-86.95,275.15,7.2
40,cape town,40,ZA,1552433321.0,82.0,-33.93,18.42,290.93,2.1
41,new norfolk,32,AU,1552432936.0,57.0,-42.78,147.06,287.04,0.89
42,kalmunai,24,LK,1552433551.0,98.0,7.42,81.82,294.39,1.38
43,srednekolymsk,56,RU,1552433553.0,71.0,67.46,153.71,256.065,1.33
44,sitka,92,US,1552433457.0,98.0,37.17,-99.65,285.37,4.02
45,taolanaro,,,,,,,,
46,qaanaaq,64,GL,1552433560.0,100.0,77.48,-69.36,252.665,3.06
47,grand river south east,,,,,,,,
48,murgab,0,TM,1552431600.0,76.0,37.5,61.97,283.15,1.26
49,panama city,1,US,1552433542.0,72.0,30.16,-85.65,297.15,3.1
50,mayya,0,RU,1552431600.0,75.0,61.74,130.28,246.15,1.0
51,mancio lima,,,,,,,,
52,binga,0,ZW,1552433573.0,95.0,-17.62,27.34,295.39,0.21
53,barrow,88,AR,1552433361.0,77.0,-38.31,-60.23,291.64,2.41
54,pakxan,0,LA,1552433577.0,81.0,18.39,103.66,293.215,1.11
55,saint-philippe,1,CA,1552433484.0,58.0,45.36,-73.48,271.48,4.1
56,anshun,76,CN,1552433582.0,95.0,26.25,105.93,285.29,4.86
57,yerbogachen,80,RU,1552433584.0,81.0,61.28,108.01,266.99,2.61
58,busselton,64,AU,1552432805.0,63.0,-33.64,115.35,289.26,3.28
59,arona,0,IT,1552433584.0,64.0,45.76,8.56,282.59,1.0
60,bejar,0,AL,1552433590.0,100.0,40.49,19.83,274.865,2.18
61,leh,24,IN,1552433593.0,54.0,34.16,77.58,243.74,0.71
62,luderitz,0,NA,1552433595.0,81.0,-26.65,15.16,288.64,6.18
63,esperance,40,TT,1552433509.0,94.0,10.24,-61.45,298.15,2.1
64,teknaf,36,BD,1552433599.0,92.0,20.86,92.31,292.415,1.23
65,tuktoyaktuk,90,CA,1552431600.0,70.0,69.44,-133.03,252.15,1.0
66,kodiak,90,US,1552433223.0,87.0,39.95,-94.76,284.26,6.7
67,iqaluit,5,CA,1552432971.0,68.0,63.75,-68.52,247.59,6.2
68,gualaca,0,PA,1552433401.0,43.0,8.54,-82.3,305.15,9.8
69,los llanos de aridane,8,ES,1552433405.0,72.0,28.66,-17.92,290.15,4.6
70,palmer,0,AU,1552433595.0,51.0,-34.85,139.16,293.15,1.5
71,hilo,75,US,1552433430.0,69.0,19.71,-155.08,297.15,2.6
72,panalingaan,0,PH,1552433616.0,93.0,8.78,117.42,298.565,1.16
73,mount gambier,56,AU,1552428000.0,93.0,-37.83,140.78,282.15,1.0
74,maketu,48,NZ,1552433523.0,79.0,-37.76,176.45,298.71,4.02
75,karratha,56,AU,1552433623.0,61.0,-20.74,116.85,303.165,3.08
76,georgetown,40,GY,1552431600.0,83.0,6.8,-58.16,300.15,4.1
77,cidreira,64,BR,1552433000.0,95.0,-30.17,-50.22,294.515,3.93
78,tasiilaq,92,GL,1552431000.0,73.0,65.61,-37.64,268.15,6.7
79,bodaybo,76,RU,1552433632.0,74.0,57.85,114.2,265.365,2.01
80,illoqqortoormiut,,,,,,,,
81,ilulissat,20,GL,1552431000.0,49.0,69.22,-51.1,256.15,1.0
82,puerto ayora,20,EC,1552433507.0,74.0,-0.74,-90.35,300.93,2.6
83,menongue,68,AO,1552433640.0,94.0,-14.66,17.68,290.615,1.21
84,vaitupu,,,,,,,,
85,zhetybay,,,,,,,,
86,kingisepp,44,RU,1552433647.0,88.0,59.38,28.61,267.99,1.91
87,bathsheba,40,BB,1552431600.0,69.0,13.22,-59.52,299.15,8.2
88,daru,20,SL,1552433339.0,70.0,7.99,-10.85,299.915,3.03
89,santa catarina de tepehuanes,0,MX,1552433653.0,28.0,25.34,-105.72,289.865,8.76
90,castro,20,CL,1552431600.0,93.0,-42.48,-73.76,285.15,3.1
91,airai,32,TL,1552433658.0,81.0,-8.93,125.41,297.54,0.76
92,hithadhoo,100,MV,1552433660.0,100.0,-0.6,73.08,301.89,3.46
93,port elizabeth,1,US,1552433209.0,33.0,39.31,-74.98,280.15,4.1
94,punta arenas,75,CL,1552432396.0,70.0,-53.16,-70.91,281.15,2.6
95,bredasdorp,92,ZA,1552433438.0,93.0,-34.53,20.04,289.15,2.1
96,adrar,0,DZ,1552431600.0,36.0,27.87,-0.29,290.15,6.2
97,chuy,44,UY,1552433671.0,97.0,-33.69,-53.46,293.99,4.93
98,bembereke,24,BJ,1552433673.0,63.0,10.23,2.66,297.79,3.16
99,cabo san lucas,40,MX,1552433479.0,46.0,22.89,-109.91,297.15,8.7
100,singapore,75,MY,1552433444.0,88.0,1.29,103.85,300.15,3.1
101,padang,40,ID,1552428000.0,94.0,-0.92,100.36,295.15,1.0
102,umzimvubu,,,,,,,,
103,atuona,92,PF,1552433684.0,100.0,-9.8,-139.03,301.165,5.41
104,harlow,75,GB,1552433410.0,80.0,51.77,0.1,279.26,8.2
105,upernavik,8,GL,1552433688.0,100.0,72.79,-56.15,254.715,6.01
106,hermanus,92,ZA,1552432538.0,97.0,-34.42,19.24,290.37,1.28
107,udachnyy,68,RU,1552433693.0,86.0,66.42,112.4,262.315,1.68
108,east london,0,ZA,1552433344.0,100.0,-33.02,27.91,295.49,9.68
109,biryusinsk,88,RU,1552433697.0,83.0,55.96,97.82,271.64,2.46
110,ambilobe,8,MG,1552433699.0,97.0,-13.19,49.05,295.54,1.38
111,amderma,,,,,,,,
112,ancud,20,CL,1552431600.0,93.0,-41.87,-73.83,285.15,3.1
113,kempsey,36,AU,1552433645.0,71.0,-31.08,152.84,302.04,4.02
114,belushya guba,,,,,,,,
115,santa maria,90,BR,1552428000.0,94.0,-29.69,-53.81,295.15,2.6
116,nome,90,US,1552433706.0,83.0,30.04,-94.42,296.15,4.6
117,nizhneyansk,,,,,,,,
118,verkhnevilyuysk,68,RU,1552433717.0,87.0,63.45,120.31,262.615,1.23
119,mount isa,0,AU,1552429800.0,48.0,-20.73,139.49,303.15,4.1
120,fort nelson,75,CA,1552431600.0,33.0,58.81,-122.69,279.15,6.2
121,snasa,92,NO,1552433723.0,71.0,64.25,12.38,266.915,5.86
122,zarubino,0,RU,1552433726.0,98.0,42.65,131.06,270.64,3.71
123,tiksi,24,RU,1552433728.0,70.0,71.64,128.87,256.04,5.93
124,anar darreh,,,,,,,,
125,hambantota,8,LK,1552433732.0,100.0,6.12,81.12,298.54,5.06
126,hokitika,92,NZ,1552433606.0,97.0,-42.72,170.96,291.14,5.56
127,souillac,0,FR,1552433590.0,87.0,45.6,-0.6,281.48,3.1
128,springbok,0,ZA,1552433739.0,83.0,-29.67,17.88,279.515,1.36
129,chokurdakh,8,RU,1552433741.0,51.0,70.62,147.9,245.64,2.03
130,klaksvik,88,FO,1552431000.0,100.0,62.23,-6.59,276.15,4.1
131,polovinnoye,92,RU,1552433745.0,93.0,54.79,65.99,275.315,10.31
132,berdigestyakh,48,RU,1552433747.0,71.0,62.1,126.7,259.89,2.58
133,luanda,75,AO,1552428000.0,74.0,-8.83,13.24,302.15,3.1
134,simao,0,CN,1552433752.0,71.0,22.76,100.79,284.615,1.43
135,torbay,75,CA,1552433608.0,86.0,47.66,-52.73,274.26,5.7
136,norman wells,75,CA,1552431600.0,65.0,65.28,-126.83,259.15,5.1
137,moroni,76,US,1552433644.0,54.0,39.52,-111.59,285.93,0.45
138,shakawe,0,BW,1552433760.0,55.0,-18.36,21.84,297.04,4.83
139,tabou,0,CI,1552433763.0,94.0,4.42,-7.36,302.015,3.46
140,vila velha,20,BR,1552433301.0,83.0,-3.71,-38.6,301.15,3.1
141,guaruja,40,BR,1552431600.0,83.0,-23.99,-46.26,296.15,3.1
142,henties bay,32,NA,1552431730.0,91.0,-22.12,14.28,289.26,1.34
143,saint george,75,GR,1552433608.0,70.0,39.45,22.34,280.93,7.7
144,magui,,,,,,,,
145,zhigalovo,76,RU,1552433776.0,76.0,54.81,105.15,265.865,1.13
146,mogok,0,MM,1552433778.0,83.0,22.92,96.51,285.39,0.81
147,albany,40,US,1552433650.0,47.0,42.65,-73.75,274.82,7.2
148,santo antonio do ica,8,BR,1552433782.0,80.0,-3.1,-67.94,300.115,2.71
149,gat,0,SN,1552431600.0,53.0,14.69,-16.54,295.15,7.2
150,ust-kuyga,0,RU,1552433787.0,50.0,70.0,135.55,245.465,1.26
151,garowe,20,SO,1552433789.0,94.0,8.41,48.48,292.215,3.58
152,makaha,90,US,1552433740.0,88.0,21.47,-158.22,300.15,4.1
153,chunskiy,88,RU,1552433793.0,88.0,56.08,99.63,269.815,1.26
154,nyagan,88,RU,1552433796.0,97.0,62.14,65.43,273.265,2.41
155,necochea,44,AR,1552433787.0,78.0,-38.55,-58.74,292.59,1.34
156,touros,40,BR,1552431600.0,94.0,-5.2,-35.46,297.15,1.5
157,bluff,0,AU,1552433266.0,50.0,-23.58,149.07,304.14,2.01
158,naze,20,NG,1552433804.0,92.0,5.43,7.07,297.54,2.83
159,san patricio,100,PY,1552433807.0,98.0,-26.98,-56.83,293.565,1.26
160,kismayo,,,,,,,,
161,yulara,0,AU,1552431600.0,30.0,-25.24,130.99,302.15,7.7
162,saleaula,,,,,,,,
163,marawi,0,PH,1552433455.0,79.0,8.0,124.29,296.48,3.13
164,yenangyaung,0,MM,1552433817.0,78.0,20.46,94.87,293.065,2.26
165,mullaitivu,,,,,,,,
166,abai,0,KZ,1552429800.0,39.0,41.35,68.95,282.15,4.1
167,port hawkesbury,90,CA,1552433761.0,92.0,45.62,-61.36,273.15,2.6
168,bolungarvik,,,,,,,,
169,barentsburg,,,,,,,,
170,ponta do sol,92,BR,1552433830.0,79.0,-20.63,-46.0,295.265,1.28
171,porto novo,40,BR,1552431600.0,74.0,-23.68,-45.44,299.15,1.5
172,bodo,12,CI,1552433835.0,92.0,5.91,-4.68,297.665,3.08
173,saposoa,40,PE,1552431600.0,290.0,-6.93,-76.77,290.15,2.1
174,cruzeiro do sul,90,BR,1552431600.0,94.0,-7.63,-72.67,298.15,1.0
175,kresttsy,0,RU,1552433842.0,71.0,58.25,32.52,261.265,1.36
176,rio grande,92,BR,1552433844.0,98.0,-32.03,-52.1,296.215,4.53
177,taonan,0,CN,1552433846.0,35.0,45.34,122.78,270.415,5.96
178,alofi,75,NU,1552431600.0,83.0,-19.06,-169.92,301.15,6.7
179,szubin,0,PL,1552433801.0,80.0,53.01,17.74,276.48,4.6
180,cairns,20,AU,1552433601.0,70.0,-16.92,145.77,303.71,6.2
181,sorvag,,,,,,,,
182,solenzo,0,BF,1552433857.0,41.0,12.18,-4.08,294.965,2.13
183,khor,92,RU,1552433859.0,80.0,47.88,134.96,271.965,2.51
184,lebu,75,ET,1552431600.0,52.0,8.96,38.73,291.15,2.1
185,charlestown,1,US,1552433642.0,44.0,41.38,-71.64,278.15,3.1
186,leningradskiy,0,RU,1552433866.0,73.0,69.38,178.42,249.365,4.18
187,mys shmidta,,,,,,,,
188,constantine,0,DZ,1552431600.0,75.0,36.36,6.61,278.15,1.06
189,road town,40,VG,1552433871.0,78.0,18.42,-64.62,299.15,2.1
190,oranjemund,88,ZA,1552433874.0,97.0,-28.55,16.43,289.815,4.63
191,port macquarie,90,AU,1552433645.0,73.0,-31.43,152.91,302.04,4.6
192,qasigiannguit,20,GL,1552431000.0,49.0,68.82,-51.19,256.15,1.0
193,colares,75,PT,1552433825.0,87.0,38.8,-9.45,287.04,2.1
194,yarmouth,44,GB,1552433831.0,75.0,50.71,-1.5,280.37,7.2
195,novo aripuana,56,BR,1552433886.0,94.0,-5.12,-60.38,297.665,1.01
196,kargasok,12,RU,1552433888.0,86.0,59.06,80.87,270.64,3.08
197,faanui,88,PF,1552433890.0,100.0,-16.48,-151.75,300.665,1.46
198,ribeira grande,8,PT,1552433892.0,98.0,38.52,-28.7,288.39,8.06
199,kavieng,76,PG,1552433894.0,100.0,-2.57,150.8,299.565,1.91
200,faya,0,SA,1552428000.0,82.0,18.39,42.45,289.15,1.96
201,shimoda,20,JP,1552433711.0,57.0,34.7,138.93,287.04,6.2
202,markova,92,RU,1552433317.0,100.0,52.21,104.21,267.04,1.0
203,terrace bay,92,CA,1552433903.0,88.0,48.78,-87.1,273.04,6.63
204,ayr,75,GB,1552433826.0,70.0,55.46,-4.63,282.15,15.4
205,lashio,0,MM,1552433908.0,86.0,22.93,97.75,288.115,0.88
206,bambous virieux,20,MU,1552433645.0,88.0,-20.34,57.76,296.48,2.1
207,flin flon,90,CA,1552431600.0,41.0,54.77,-101.88,277.15,1.0
208,nanortalik,88,GL,1552433914.0,96.0,60.14,-45.24,272.165,11.43
209,arteche,88,PH,1552433916.0,94.0,12.27,125.37,298.14,3.63
210,havre-saint-pierre,20,CA,1552431600.0,68.0,50.23,-63.6,269.15,2.6
211,sivaki,24,RU,1552433921.0,69.0,52.63,126.75,267.615,1.56
212,verkhnyaya inta,88,RU,1552433923.0,86.0,65.99,60.32,269.615,1.21
213,kungurtug,80,RU,1552433925.0,85.0,50.6,97.53,263.265,2.18
214,karpogory,76,RU,1552433931.0,70.0,64.0,44.44,268.415,2.86
215,chara,75,GR,1552433608.0,70.0,39.42,22.43,280.93,7.7
216,baganga,44,PH,1552433935.0,100.0,7.57,126.56,298.54,2.93
217,la ronge,75,CA,1552431600.0,42.0,55.1,-105.3,280.15,4.6
218,samalaeulu,,,,,,,,
219,boende,68,CD,1552433942.0,98.0,-0.28,20.88,294.465,0.98
220,ekhabi,76,RU,1552433944.0,97.0,53.51,142.97,269.465,4.53
221,thompson,75,CA,1552431600.0,44.0,55.74,-97.86,276.15,1.0
222,walvis bay,0,NA,1552431730.0,87.0,-22.95,14.51,289.26,3.6
223,natchitoches,90,US,1552433854.0,83.0,31.76,-93.09,295.93,4.1
224,kahului,40,US,1552433806.0,65.0,20.89,-156.47,298.15,6.7
225,capoterra,0,IT,1552432800.0,75.0,39.18,8.97,283.15,2.1
226,vanimo,88,PG,1552433957.0,100.0,-2.67,141.3,299.215,3.01
227,dunedin,68,NZ,1552433746.0,70.0,-45.87,170.5,292.59,4.92
228,raga,,,,,,,,
229,stonewall,20,CA,1552433771.0,87.0,50.13,-97.33,274.82,8.2
230,milkovo,90,BG,1552433886.0,100.0,41.53,24.68,279.82,3.6
231,portland,75,US,1552433886.0,70.0,45.52,-122.67,283.15,3.6
232,rosarito,40,CO,1552431600.0,88.0,4.91,-75.23,298.15,2.6
233,pevek,12,RU,1552433973.0,96.0,69.7,170.27,246.24,2.83
234,fayaoue,0,NC,1552433975.0,100.0,-20.65,166.53,299.99,5.08
235,shubarkuduk,88,KZ,1552433977.0,82.0,49.15,56.49,271.515,1.28
236,mahebourg,20,MU,1552433946.0,88.0,-20.41,57.7,296.48,2.1
237,rabo de peixe,75,PT,1552433973.0,87.0,37.8,-25.58,286.15,5.7
238,pingshan,92,CN,1552433987.0,97.0,28.83,104.35,287.365,1.56
239,goundam,0,ML,1552433989.0,34.0,16.42,-3.66,292.54,5.98
240,yaritagua,20,VE,1552433991.0,62.0,10.08,-69.12,297.29,2.06
241,belle fourche,1,US,1552433799.0,56.0,44.67,-103.85,280.93,4.1
242,abu dhabi,0,AE,1552431600.0,82.0,24.47,54.37,289.15,1.5
243,beloha,8,MG,1552433998.0,79.0,-25.17,45.06,295.99,5.66
244,saint-francois,75,FR,1552433508.0,81.0,46.42,3.91,280.15,5.7
245,ossora,0,RU,1552434002.0,88.0,59.24,163.07,259.79,1.48
246,pochutla,20,MX,1552433406.0,40.0,15.74,-96.47,305.15,6.11
247,ponta delgada,75,PT,1552433913.0,87.0,37.73,-25.67,286.15,5.7
248,del rio,1,US,1552431480.0,54.0,29.36,-100.9,300.15,7.7
249,ahipara,64,NZ,1552434011.0,74.0,-35.17,173.16,296.465,3.48
250,innisfail,75,CA,1552433417.0,51.0,52.02,-113.95,275.15,3.1
251,aleksandrovsk-sakhalinskiy,80,RU,1552434015.0,87.0,50.9,142.16,270.215,3.16
252,ketchikan,90,US,1552431360.0,86.0,55.34,-131.65,279.15,2.1
253,puerto escondido,5,MX,1552430400.0,66.0,15.86,-97.07,303.15,4.1
254,subaytilah,,,,,,,,
255,egvekinot,8,RU,1552434024.0,63.0,66.32,-179.17,250.265,1.48
256,lormi,76,IN,1552434026.0,68.0,22.27,81.71,295.415,2.78
257,nova olimpia,8,BR,1552434028.0,85.0,-14.8,-57.29,298.24,2.18
258,kachiry,8,KZ,1552434031.0,68.0,53.07,76.1,263.215,3.18
259,severo-yeniseyskiy,32,RU,1552434004.0,85.0,60.37,93.04,264.965,1.51
260,port blair,0,IN,1552434035.0,100.0,11.67,92.75,300.115,4.43
261,san cristobal,90,EC,1552433407.0,87.0,-0.39,-78.55,289.15,2.6
262,kalakamati,0,BW,1552434040.0,58.0,-20.59,27.31,292.99,6.18
263,kyabe,0,TD,1552434042.0,40.0,9.45,18.94,297.015,2.28
264,bethel,75,US,1552431360.0,80.0,60.79,-161.76,275.15,4.1
265,bo phloi,0,TH,1552434046.0,82.0,14.32,99.52,290.115,1.01
266,hillsborough,1,US,1552434019.0,66.0,37.57,-122.38,288.15,12.9
267,caravelas,44,BR,1552433876.0,99.0,-17.73,-39.27,302.065,6.38
268,guerrero negro,92,MX,1552434053.0,96.0,27.97,-114.04,287.265,7.08
269,saint anthony,1,US,1552434052.0,51.0,43.97,-111.68,280.37,3.1
270,barcelos,0,PT,1552433542.0,81.0,41.53,-8.62,284.15,5.7
271,hualmay,12,PE,1552434059.0,76.0,-11.1,-77.61,296.215,1.96
272,revda,0,RU,1552434062.0,55.0,67.94,34.55,254.54,1.03
273,lorengau,56,PG,1552434064.0,100.0,-2.02,147.27,300.365,3.86
274,huarmey,12,PE,1552434066.0,66.0,-10.07,-78.15,295.665,1.48
275,okato,92,NZ,1552433361.0,95.0,-39.19,173.88,294.26,0.45
276,nguiu,,,,,,,,
277,arraial do cabo,64,BR,1552434045.0,92.0,-22.97,-42.02,299.74,3.23
278,puerto plata,75,DO,1552434026.0,73.0,19.79,-70.69,298.15,3.6
279,straumen,0,NO,1552434002.0,54.0,63.87,11.3,272.59,18.5
280,acapulco,5,MX,1552430820.0,70.0,16.86,-99.88,302.15,5.7
281,marsh harbour,48,BS,1552434081.0,98.0,26.54,-77.06,298.265,5.53
282,jian,0,IN,1552434083.0,57.0,25.65,87.89,290.24,1.83
283,victoria,75,BN,1552431600.0,83.0,5.28,115.24,299.15,1.0
284,shingu,40,JP,1552430400.0,66.0,33.72,135.99,282.15,9.8
285,coulihaut,,,,,,,,
286,kandrian,56,PG,1552434092.0,86.0,-6.21,149.55,300.665,2.56
287,kaputa,88,ZM,1552434094.0,99.0,-8.47,29.66,291.24,0.91
288,sinnamary,24,GF,1552434097.0,94.0,5.38,-52.96,299.515,4.96
289,riyadh,0,SA,1552431600.0,23.0,24.63,46.72,285.15,1.23
290,longyearbyen,75,NO,1552431000.0,84.0,78.22,15.63,258.15,1.0
291,truckee,75,US,1552433973.0,56.0,39.33,-120.18,280.93,4.1
292,barawe,,,,,,,,
293,salinopolis,68,BR,1552434107.0,100.0,-0.61,-47.36,298.99,3.73
294,marcona,,,,,,,,
295,kenai,90,US,1552433824.0,64.0,60.55,-151.26,277.59,1.5
296,iskateley,0,RU,1552434114.0,58.0,67.68,53.15,258.24,3.26
297,auki,0,NG,1552434116.0,41.0,12.18,6.51,294.29,1.78
298,sao filipe,0,CV,1552434118.0,85.0,14.9,-24.5,296.465,7.43
299,macherla,8,IN,1552434121.0,85.0,16.48,79.44,292.015,1.33
300,hobyo,56,SO,1552434123.0,84.0,5.35,48.53,299.14,6.98
301,cape coast,44,GH,1552434125.0,85.0,5.11,-1.24,299.115,2.11
302,vao,0,EE,1552434127.0,73.0,59.1,26.19,263.04,1.06
303,sosva,92,RU,1552434129.0,96.0,59.17,61.86,274.065,2.61
304,meulaboh,8,ID,1552434132.0,100.0,4.14,96.13,299.215,2.16
305,goderich,0,CA,1552433954.0,72.0,43.74,-81.71,275.37,2.68
306,mus,0,FR,1552434128.0,81.0,43.74,4.2,279.82,0.5
307,mitsamiouli,0,KM,1552434138.0,99.0,-11.38,43.28,300.765,4.61
308,mar del plata,76,AR,1552434140.0,83.0,-46.43,-67.52,286.29,6.86
309,haines junction,0,CA,1552434143.0,82.0,60.75,-137.51,270.765,1.21
310,general roca,0,AR,1552431600.0,47.0,-39.03,-67.58,298.15,5.1
311,tsihombe,,,,,,,,
312,celestun,0,MX,1552434149.0,83.0,20.87,-90.4,301.665,7.11
313,iquique,90,CL,1552431600.0,73.0,-20.22,-70.14,294.15,7.7
314,greer,1,US,1552432500.0,38.0,34.94,-82.23,291.15,1.5
315,arosa,0,CH,1552434129.0,67.0,46.78,9.68,279.82,0.5
316,antsohihy,56,MG,1552434159.0,97.0,-14.88,47.99,295.665,1.28
317,milingimbi,,,,,,,,
318,jaen,20,PE,1552434163.0,84.0,-5.71,-78.81,291.865,0.83
319,plettenberg bay,32,ZA,1552434166.0,99.0,-34.05,23.37,291.965,4.13
320,valleyview,8,CA,1552434169.0,76.0,55.07,-117.28,274.665,4.51
321,hamilton,20,CA,1552433902.0,69.0,43.26,-79.87,275.93,3.1
322,kamenskoye,,,,,,,,
323,poum,36,MK,1552434175.0,74.0,41.28,20.71,271.39,2.01
324,ambagarh chauki,24,IN,1552434178.0,77.0,20.78,80.75,294.965,1.26
325,cockburn town,0,TC,1552434180.0,100.0,21.46,-71.14,297.89,4.58
326,zyryanka,48,RU,1552434182.0,76.0,65.73,150.89,255.265,1.28
327,kutoarjo,68,ID,1552434184.0,97.0,-7.72,109.9,299.465,1.93
328,ucluelet,20,CA,1552433976.0,66.0,48.94,-125.55,283.15,6.7
329,misratah,12,LY,1552434047.0,80.0,32.38,15.09,286.89,11.03
330,chapais,75,CA,1552431600.0,66.0,49.78,-74.86,264.15,2.6
331,college,75,US,1552433809.0,88.0,64.86,-147.8,275.37,1.33
332,margate,76,AU,1552434136.0,60.0,-43.03,147.26,288.15,1.91
333,simplicio mendes,48,BR,1552434197.0,82.0,-7.85,-41.91,297.015,3.13
334,lagoa,0,PT,1552434129.0,72.0,37.14,-8.45,288.15,3.6
335,penzance,20,GB,1552434185.0,75.0,50.12,-5.53,280.37,8.7
336,sentyabrskiy,,,,,,,,
337,husavik,8,CA,1552434041.0,80.0,50.56,-96.99,274.26,3.13
338,grand centre,,,,,,,,
339,karasjok,0,NO,1552431000.0,72.0,69.47,25.52,265.15,9.3
340,kamaishi,90,JP,1552430400.0,100.0,39.28,141.86,275.15,0.5
341,raymond,20,US,1552433558.0,32.0,43.04,-71.18,277.15,4.6
342,ardesen,75,TR,1552431600.0,47.0,41.19,40.99,288.15,6.7
343,kruisfontein,0,ZA,1552434219.0,87.0,-34.0,24.73,290.64,5.71
344,mount pleasant,90,US,1552433899.0,82.0,33.16,-94.97,293.15,3.6
345,kadykchan,,,,,,,,
346,itoman,0,JP,1552431600.0,42.0,26.12,127.67,291.15,1.5
347,pancas,20,BR,1552434229.0,90.0,-19.22,-40.85,297.215,2.68
348,bolshaya chernigovka,,,,,,,,
349,dingle,32,PH,1552434233.0,85.0,11.0,122.67,297.89,2.68
350,kuala pilah,75,MY,1552431600.0,88.0,2.74,102.25,299.15,1.5
351,kudahuvadhoo,8,MV,1552434237.0,98.0,2.67,72.89,301.965,4.08
352,eureka,40,US,1552433948.0,58.0,40.8,-124.16,285.15,10.3
353,solnechnyy,92,RU,1552434242.0,82.0,50.72,136.64,267.565,3.41
354,sinazongwe,0,ZM,1552434244.0,95.0,-17.26,27.46,295.39,0.21
355,lavrentiya,68,RU,1552434246.0,100.0,65.58,-170.99,257.24,15.88
356,pandan,0,PH,1552434249.0,100.0,11.72,122.09,299.39,7.86
357,coquimbo,0,CL,1552434251.0,100.0,-29.95,-71.34,290.465,2.13
358,mehamn,40,NO,1552431000.0,79.0,71.03,27.85,272.15,5.7
359,itanhaem,40,BR,1552431600.0,83.0,-24.18,-46.79,296.15,3.1
360,tabriz,0,IR,1552431600.0,64.0,38.08,46.29,276.15,2.1
361,arkhara,76,RU,1552434260.0,75.0,49.42,130.09,273.115,2.06
362,lac du bonnet,0,CA,1552434041.0,80.0,50.25,-96.06,274.26,3.13
363,north bend,75,US,1552434025.0,76.0,43.41,-124.22,283.15,4.1
364,bella vista,0,AR,1552434267.0,80.0,-28.51,-59.05,293.965,3.18
365,labutta,,,,,,,,
366,katsuura,20,JP,1552433084.0,45.0,33.93,134.5,282.59,9.3
367,erenhot,48,CN,1552434273.0,73.0,43.65,111.97,264.49,1.36
368,khatanga,56,RU,1552434276.0,67.0,71.98,102.47,250.215,5.63
369,ostrovnoy,0,RU,1552434278.0,81.0,68.05,39.51,264.115,7.18
370,kavaratti,0,IN,1552434280.0,100.0,10.57,72.64,301.615,4.18
371,wakkanai,44,JP,1552434282.0,100.0,45.41,141.67,273.24,3.36
372,prachuap khiri khan,0,TH,1552434284.0,78.0,11.81,99.79,294.065,0.98
373,christchurch,24,NZ,1552434080.0,53.0,-43.53,172.64,304.26,3.1
374,saint-leu,0,RE,1552434063.0,60.0,-21.15,55.28,297.15,2.6
375,susanville,90,US,1552433248.0,41.0,40.42,-120.65,279.15,5.1
376,washougal,90,US,1552434171.0,70.0,45.58,-122.35,283.15,4.6
377,arlit,44,NE,1552434295.0,31.0,18.74,7.39,292.865,4.13
378,bengkulu,,,,,,,,
379,nocupetaro,0,MX,1552434299.0,29.0,19.05,-101.15,298.165,2.41
380,banyo,20,CM,1552434301.0,55.0,6.75,11.81,292.39,1.33
381,talnakh,36,RU,1552434304.0,67.0,69.49,88.39,249.915,1.36
382,sibolga,8,ID,1552434174.0,99.0,1.74,98.78,293.14,0.83
383,andra,88,RU,1552434308.0,95.0,62.52,65.89,273.24,2.93
384,fairbanks,75,US,1552434032.0,88.0,64.84,-147.72,275.37,1.33
385,cruzeiro,24,BR,1552434313.0,91.0,-22.58,-44.96,292.215,1.46
386,tigil,8,RU,1552434315.0,78.0,57.8,158.67,261.315,1.81
387,provideniya,40,RU,1552429800.0,54.0,64.42,-173.23,255.15,8.0
388,yelizovo,20,RU,1552429800.0,56.0,53.19,158.38,264.15,3.0
389,qandahar,,,,,,,,
390,ola,20,RU,1552434324.0,100.0,59.58,151.3,263.065,2.13
391,camabatela,64,AO,1552434326.0,94.0,-8.19,15.37,290.665,0.46
392,saryshagan,,,,,,,,
393,coxim,12,BR,1552434330.0,83.0,-18.5,-54.75,297.74,4.26
394,kailua,75,US,1552434331.0,69.0,21.39,-157.74,300.15,4.6
395,ongandjera,0,NA,1552434335.0,23.0,-17.88,15.07,294.24,4.53
396,kuche,,,,,,,,
397,bani,0,PH,1552434339.0,90.0,15.89,120.27,298.265,1.83
398,kitob,0,UZ,1552434341.0,82.0,39.12,66.88,275.615,1.66
399,soe,90,EE,1552434104.0,79.0,57.91,26.05,270.15,4.1
400,pointe michel,20,DM,1552431600.0,73.0,15.25,-61.38,296.15,0.5
401,waingapu,56,ID,1552434309.0,92.0,-9.65,120.26,298.64,1.96
402,capreol,5,CA,1552433436.0,58.0,46.71,-80.92,272.15,4.1
403,envira,,,,,,,,
404,kilindoni,92,TZ,1552434354.0,100.0,-7.91,39.67,301.415,3.91
405,atoyac,5,MX,1552432526.0,74.0,18.92,-96.78,301.15,2.6
406,namatanai,92,PG,1552434359.0,100.0,-3.66,152.44,297.54,2.36
407,nisia floresta,20,BR,1552431600.0,94.0,-6.09,-35.21,298.15,2.6
408,mudbidri,0,IN,1552431600.0,83.0,13.08,74.98,298.15,1.01
409,xiongzhou,0,CN,1552434347.0,99.0,32.34,118.83,283.71,4.76
410,hammerfest,75,NO,1552432800.0,80.0,70.66,23.68,272.15,7.2
411,tezu,8,IN,1552434093.0,91.0,27.93,96.16,283.815,0.68
412,nizhniy kuranakh,24,RU,1552434372.0,64.0,58.84,125.49,256.39,1.26
413,senador guiomard,40,BR,1552431600.0,94.0,-10.15,-67.74,298.15,3.6
414,ayan,92,TR,1552434376.0,98.0,40.67,33.6,276.99,2.13
415,cayenne,20,GF,1552431600.0,78.0,4.94,-52.33,299.15,1.0
416,shaoyang,92,CN,1552434380.0,94.0,27.23,111.45,285.29,0.46
417,manokwari,68,ID,1552434334.0,100.0,-0.87,134.08,299.29,5.18
418,wanaka,36,NZ,1552434385.0,67.0,-44.7,169.14,291.965,2.73
419,juneau,90,US,1552431360.0,93.0,58.3,-134.42,280.15,3.6
420,sao joao da barra,20,BR,1552431600.0,83.0,-21.64,-41.05,300.15,2.1
421,mana,0,RS,1552433400.0,92.0,43.52,20.24,271.15,0.93
422,avera,1,US,1552434331.0,34.0,33.19,-82.53,294.15,2.1
423,dianalund,88,DK,1552434390.0,93.0,55.53,11.49,277.04,7.7
424,nuuk,12,GL,1552431169.0,66.0,64.17,-51.74,263.15,4.1
425,jumla,88,NP,1552434400.0,71.0,29.28,82.18,267.24,0.76
426,tuatapere,44,NZ,1552434005.0,90.0,-46.13,167.69,287.04,6.26
427,los algarrobos,75,EC,1552431600.0,74.0,-3.25,-79.94,305.15,1.68
428,tual,76,ID,1552434407.0,100.0,-5.67,132.75,299.24,5.61
429,thinadhoo,92,MV,1552434409.0,100.0,0.53,72.93,302.04,3.86
430,tawkar,,,,,,,,
431,davila,75,PH,1552431600.0,94.0,18.47,120.58,295.15,1.5
432,dunmore east,24,IE,1552434180.0,79.0,52.15,-6.99,280.93,2.68
433,basco,90,US,1552434393.0,80.0,40.33,-91.2,282.04,8.2
434,westport,92,IE,1552434183.0,77.0,53.8,-9.52,280.93,7.6
435,buala,76,SB,1552434422.0,81.0,-8.15,159.59,302.865,2.51
436,caconda,48,AO,1552434424.0,77.0,-13.73,15.06,288.165,0.21
437,nanakuli,90,US,1552434396.0,88.0,21.39,-158.15,300.15,4.1
438,ginda,88,IN,1552434429.0,67.0,30.69,78.49,273.465,0.76
439,magistralnyy,24,RU,1552434431.0,76.0,56.17,107.45,262.065,1.38
440,kashi,,,,,,,,
441,cherdyn,92,RU,1552434435.0,98.0,60.4,56.48,273.74,2.86
442,shiraoi,75,JP,1552434010.0,80.0,42.56,141.33,277.04,1.0
443,mbanza-ngungu,36,CD,1552434440.0,90.0,-5.25,14.87,296.165,1.43
444,morondava,80,MG,1552434442.0,100.0,-20.3,44.28,298.015,3.61
445,baghmara,0,IN,1552434444.0,62.0,23.8,86.21,291.29,2.13
446,bobon,12,PH,1552434446.0,100.0,12.53,124.56,298.915,3.91
447,tsaratanana,92,MG,1552434449.0,98.0,-16.8,47.65,294.815,1.26
448,attawapiskat,,,,,,,,
449,dong xoai,0,VN,1552434285.0,92.0,11.53,106.92,296.99,2.06
450,narsaq,88,GL,1552431000.0,31.0,60.91,-46.05,274.15,13.9
451,aksu,20,KZ,1552431600.0,92.0,52.04,76.93,263.15,3.0
452,matay,64,EG,1552434460.0,51.0,28.42,30.79,284.815,1.16
453,taoudenni,0,ML,1552434462.0,23.0,22.68,-3.98,291.765,6.08
454,chabahar,0,IR,1552434464.0,100.0,25.29,60.65,289.615,3.08
455,nantucket,1,US,1552434378.0,51.0,41.28,-70.1,278.15,1.5
456,casper,1,US,1552433267.0,45.0,42.87,-106.31,283.15,6.7
457,manica,44,MZ,1552434471.0,88.0,-18.94,32.88,290.54,1.21
458,san policarpo,88,PH,1552434473.0,94.0,12.18,125.51,298.14,3.63
459,camopi,32,GF,1552434475.0,63.0,3.17,-52.33,299.74,1.78
460,cotonou,8,BJ,1552434477.0,83.0,6.37,2.43,300.54,2.83
461,artigas,0,BR,1552434480.0,85.0,-30.4,-56.46,293.165,3.68
462,mendi,80,ET,1552434482.0,37.0,9.8,35.1,294.315,2.73
463,fortuna,0,ES,1552434442.0,87.0,38.18,-1.13,288.15,2.6
464,muswellbrook,8,AU,1552434006.0,78.0,-32.27,150.89,297.04,3.13
465,maloshuyka,,,,,,,,
466,falun,68,SE,1552434411.0,62.0,60.61,15.63,269.26,5.7
467,havelock,1,US,1552434280.0,47.0,34.88,-76.9,286.15,3.1
468,bakel,0,SN,1552434495.0,20.0,14.9,-12.46,295.04,5.21
469,bhimunipatnam,20,IN,1552431600.0,88.0,17.88,83.43,298.15,1.0
470,gorontalo,76,ID,1552434499.0,89.0,0.54,123.06,297.615,1.13
471,vasyshcheve,90,UA,1552431600.0,78.0,49.83,36.33,273.15,2.0
472,hilton head island,1,US,1552434371.0,54.0,32.16,-80.75,291.15,1.5
473,dimasalang,44,PH,1552434406.0,92.0,15.49,120.97,296.365,1.23
474,constitucion,40,MX,1552434016.0,17.0,23.99,-104.67,297.15,12.3
475,karlstad,88,SE,1552434260.0,100.0,59.38,13.5,273.15,6.7
476,hasaki,20,JP,1552433676.0,87.0,35.73,140.83,285.37,1.0
477,yumen,68,CN,1552434515.0,62.0,40.29,97.04,268.515,2.16
478,sao mateus,64,BR,1552434517.0,88.0,-18.72,-39.86,301.415,5.41
479,pokanayevka,,,,,,,,
480,ouango,76,CD,1552434521.0,94.0,4.31,22.55,294.465,2.28
481,saldanha,44,PT,1552434524.0,88.0,41.42,-6.55,281.365,2.81
482,santa marta,40,CO,1552431600.0,55.0,11.24,-74.21,303.15,12.3
483,sawtell,90,AU,1552434504.0,74.0,-30.38,153.1,302.04,5.7
484,lensk,76,RU,1552434531.0,81.0,60.71,114.91,266.79,2.56
485,moree,0,AU,1552434384.0,23.0,-29.46,149.84,305.37,1.5
486,tibati,24,CM,1552434535.0,49.0,6.47,12.63,292.79,1.21
487,canguaretama,20,BR,1552431600.0,94.0,-6.38,-35.14,298.15,2.6
488,romanovskaya,92,RU,1552434540.0,98.0,47.54,42.02,274.465,2.83
489,coihaique,75,CL,1552431600.0,48.0,-45.58,-72.07,289.15,4.1
490,kenora,20,CA,1552434167.0,78.0,49.76,-94.48,277.15,4.6
491,domoni,,,,,,,,
492,ambodifototra,,,,,,,,
493,bitung,20,ID,1552431600.0,94.0,1.44,125.19,297.15,0.5
494,gewane,48,ET,1552434553.0,63.0,10.16,40.66,296.165,1.88
495,mabai,92,CN,1552434555.0,94.0,23.01,104.4,286.665,1.01
496,dalianwan,0,CN,1552431600.0,31.0,39.03,121.69,275.15,1.0
497,umm kaddadah,0,SD,1552434560.0,30.0,13.6,26.69,289.665,2.03
498,ridgecrest,20,US,1552434011.0,36.0,35.62,-117.67,293.15,8.7
499,clyde river,20,CA,1552431600.0,76.0,70.47,-68.59,249.15,5.7
500,aklavik,90,CA,1552432080.0,58.0,68.22,-135.01,253.15,2.6
501,tugulym,75,RU,1552429800.0,80.0,57.06,64.64,275.15,7.0
502,melita,0,CA,1552434290.0,88.0,49.27,-100.98,273.71,2.24
503,upornaya,88,RU,1552434573.0,69.0,44.39,41.02,282.49,3.03
504,gondanglegi,44,ID,1552434575.0,92.0,-7.75,112.01,296.24,1.68
505,prachin buri,8,TH,1552433657.0,73.0,14.05,101.37,302.59,1.83
506,labuan,75,BN,1552431600.0,83.0,5.28,115.24,299.15,1.0
507,sola,75,NO,1552434488.0,93.0,58.89,5.65,277.59,3.1
508,bur gabo,,,,,,,,
509,ust-maya,64,RU,1552434586.0,58.0,60.42,134.54,258.14,1.11
510,zhezkazgan,32,KZ,1552434588.0,85.0,47.8,67.71,266.29,1.33
511,tarazona,90,ES,1552434330.0,66.0,41.91,-1.72,285.15,7.2
512,cuenca,8,ES,1552434003.0,65.0,40.07,-2.13,285.93,2.68
513,biak,92,ID,1552434595.0,100.0,-0.91,122.88,296.415,1.28
514,pahrump,40,US,1552434391.0,33.0,36.21,-115.98,292.04,2.1
515,kaitangata,56,NZ,1552434587.0,68.0,-46.28,169.85,292.04,0.89
516,rogun,,,,,,,,
517,chiredzi,32,ZW,1552434603.0,91.0,-21.05,31.67,293.965,1.43
518,broome,64,GB,1552434604.0,80.0,52.47,1.45,279.26,10.3
519,buxton,75,GB,1552434607.0,65.0,53.26,-1.91,281.48,10.8
520,kendal,40,ID,1552429800.0,88.0,-6.92,110.2,298.15,1.23
521,yar-sale,76,RU,1552434612.0,91.0,66.83,70.83,267.04,5.88
522,arman,0,RU,1552434614.0,56.0,59.7,150.17,261.365,1.71
523,paamiut,88,GL,1552434617.0,100.0,61.99,-49.67,271.74,6.63
524,aswan,8,EG,1552434619.0,49.0,24.09,32.9,285.665,1.06
525,zaysan,12,KZ,1552434621.0,58.0,47.47,84.87,261.365,0.83
526,chicama,40,PE,1552431600.0,78.0,-7.84,-79.15,298.15,5.1
527,santona,92,ES,1552434609.0,93.0,43.44,-3.46,283.15,2.6
528,santana do livramento,8,BR,1552434628.0,82.0,-30.89,-55.53,294.515,3.48
529,pangody,76,RU,1552434630.0,89.0,65.85,74.49,267.29,7.08
530,fergus falls,90,US,1552434520.0,100.0,46.28,-96.08,276.15,5.7
531,groa,92,FR,1552434486.0,81.0,48.67,-4.14,281.48,8.7
532,san joaquin,32,PH,1552434637.0,85.0,10.59,122.14,297.89,2.68
533,oneonta,0,US,1552434630.0,70.0,42.45,-75.06,270.93,2.26
534,kaeo,20,NZ,1552433885.0,57.0,-35.1,173.78,299.26,2.68
535,barddhaman,0,IN,1552434643.0,86.0,23.25,87.85,291.665,1.23
536,saint-michel-des-saints,8,CA,1552434645.0,70.0,46.68,-73.92,265.04,2.23
537,shadegan,0,IR,1552431600.0,76.0,30.65,48.67,287.15,1.33
538,kem,0,UG,1552434650.0,54.0,2.68,33.77,294.74,3.96
539,hearst,92,CA,1552434652.0,71.0,49.69,-83.67,274.865,4.73
540,cururupu,56,BR,1552434654.0,92.0,-1.82,-44.87,298.665,1.61
541,cabinda,80,AO,1552434656.0,100.0,-5.56,12.19,301.49,1.78
542,comodoro rivadavia,0,AR,1552431600.0,87.0,-45.87,-67.48,287.15,4.1
543,half moon bay,1,US,1552434660.0,66.0,37.46,-122.43,288.15,12.9
544,bandarbeyla,92,SO,1552434663.0,100.0,9.49,50.81,298.565,6.11
545,valparaiso,1,US,1552434484.0,52.0,41.47,-87.06,280.37,3.6
546,tagusao,0,PH,1552434667.0,93.0,9.19,117.81,298.565,1.16
547,concordia,0,AR,1552433813.0,86.0,-31.4,-58.02,294.26,4.58
548,klyuchi,0,RU,1552434672.0,83.0,52.25,79.17,267.115,4.71
549,batemans bay,56,AU,1552434457.0,57.0,-35.71,150.18,291.48,0.89
550,takoradi,68,GH,1552434676.0,98.0,4.89,-1.75,301.265,4.21
551,mabaruma,64,GY,1552434679.0,81.0,8.2,-59.78,299.29,3.81
552,tupik,44,RU,1552434681.0,64.0,54.43,119.94,259.115,1.11
553,gushikawa,1,JP,1552431600.0,76.0,26.35,127.87,291.15,2.1
554,el tigre,76,VE,1552434611.0,48.0,8.89,-64.25,302.465,6.53
555,nouadhibou,0,MR,1552431600.0,49.0,20.93,-17.03,295.15,7.7
556,sabha,0,LY,1552434690.0,40.0,27.03,14.43,286.865,5.93
557,biloela,0,AU,1552434692.0,57.0,-24.4,150.51,302.615,1.91
558,ye,,,,,,,,
559,dudinka,56,RU,1552434618.0,60.0,69.41,86.18,251.465,1.91
560,ballina,92,IE,1552434484.0,80.0,54.11,-9.15,280.93,7.6
561,berlevag,40,NO,1552431000.0,79.0,70.86,29.09,271.15,5.7
562,rawannawi,,,,,,,,
563,akhtubinsk,88,RU,1552434705.0,92.0,48.29,46.17,277.115,4.48
564,malanje,24,AO,1552434707.0,96.0,-9.54,16.35,293.14,1.61
565,guiglo,12,CI,1552434709.0,81.0,6.55,-7.5,297.165,2.41
566,salmas,0,IR,1552431600.0,64.0,38.2,44.77,276.15,1.0
567,khandyga,48,RU,1552434714.0,63.0,62.65,135.58,255.39,1.13
568,russell,20,AR,1552431600.0,44.0,-33.01,-68.8,298.15,1.0
569,dehloran,0,IR,1552434718.0,73.0,32.69,47.27,279.54,1.03
570,hofn,44,IS,1552434721.0,100.0,64.25,-15.21,277.165,11.38
571,briceno,80,CO,1552434723.0,99.0,7.11,-75.55,292.315,0.38
572,rawson,0,AR,1552434725.0,50.0,-43.3,-65.11,289.24,6.51
573,belaya gora,20,RU,1552434727.0,40.0,68.54,146.19,248.215,1.26
574,decatur,1,US,1552434601.0,32.0,35.51,-84.79,288.15,1.5
575,thaton,0,MM,1552434732.0,99.0,16.91,97.37,298.215,2.71
576,petropavlovsk-kamchatskiy,20,RU,1552429800.0,56.0,53.05,158.65,264.15,3.0
577,pangnirtung,12,CA,1552434736.0,52.0,66.15,-65.72,245.015,1.78
578,olga,1,US,1552434735.0,30.0,34.11,-118.17,295.15,6.7
579,uni,80,RU,1552434741.0,87.0,57.75,51.49,271.115,7.06
580,palmas,68,BR,1552434743.0,87.0,-10.18,-48.33,298.74,1.71
581,lubao,75,PH,1552434523.0,88.0,14.94,120.6,300.93,2.1
582,ostrogozhsk,20,RU,1552434747.0,87.0,50.86,39.08,268.615,3.61
583,calamar,36,CO,1552434749.0,81.0,1.96,-72.65,298.315,0.21
584,panshi,68,CN,1552434752.0,54.0,42.94,126.05,268.465,6.86
585,saint-joseph,0,FR,1552434639.0,70.0,43.56,6.97,281.15,1.0
586,buraydah,36,SA,1552434756.0,41.0,26.33,43.97,278.89,1.91
587,bordighera,0,IT,1552434617.0,45.0,43.79,7.66,283.15,4.1
588,marzuq,8,YE,1552434761.0,88.0,14.4,46.47,285.415,0.93
589,okha,76,RU,1552434763.0,97.0,53.59,142.95,269.465,4.53
590,tonota,0,BW,1552434765.0,65.0,-21.44,27.46,294.165,5.53
591,nizwa,0,OM,1552434767.0,57.0,22.93,57.53,277.29,1.13
592,teguise,20,ES,1552431600.0,77.0,29.06,-13.56,290.15,5.7
593,palabuhanratu,,,,,,,,
594,shelburne,1,CA,1552434626.0,51.0,44.08,-80.2,275.15,2.6
595,isangel,8,VU,1552434776.0,100.0,-19.55,169.27,299.99,4.28
596,jiuquan,44,CN,1552434778.0,63.0,39.73,98.49,260.915,1.43
597,bull savanna,0,JM,1552434780.0,58.0,17.89,-77.59,297.915,1.71
598,severo-kurilsk,92,RU,1552434783.0,97.0,50.68,156.12,272.165,14.63
599,krasnoselkup,,,,,,,,
600,aleksandrovskiy zavod,32,RU,1552434787.0,64.0,50.92,117.94,257.54,1.11
601,hervey bay,0,AU,1552434309.0,48.0,-25.3,152.85,306.48,2.1
602,ishim,92,RU,1552434791.0,93.0,56.11,69.47,274.015,8.33
603,ankang,92,CN,1552434793.0,98.0,32.73,108.99,278.015,0.98
604,consett,75,GB,1552434724.0,81.0,54.85,-1.83,280.37,15.4
605,makakilo city,90,US,1552434529.0,88.0,21.35,-158.09,300.15,4.1
606,vardo,1,US,1552434562.0,31.0,39.62,-77.74,283.15,3.1
607,tokur,64,RU,1552434802.0,73.0,53.13,132.9,263.79,1.43
608,andrews,90,US,1552434373.0,93.0,32.32,-102.55,293.15,11.3
609,lieksa,0,FI,1552434807.0,76.0,63.32,30.02,261.365,1.23
610,aden,92,YE,1552434809.0,97.0,12.79,45.03,299.24,10.93
611,santa fe,24,AR,1552434639.0,94.0,-31.62,-60.7,296.48,3.68
612,jatibonico,0,CU,1552434814.0,64.0,21.94,-79.17,298.89,4.48
613,praya,20,ID,1552431600.0,100.0,-8.71,116.27,297.15,0.76
614,bubaque,0,GW,1552434818.0,85.0,11.28,-15.83,300.665,4.66
615,vostok,56,RU,1552434821.0,77.0,46.45,135.83,269.465,1.06
616,grand gaube,20,MU,1552434545.0,88.0,-20.01,57.66,297.04,2.1
617,bac lieu,,,,,,,,
618,alyangula,8,AU,1552434827.0,99.0,-13.85,136.42,302.99,3.31
619,cooma,92,AU,1552434829.0,100.0,-36.24,149.13,282.915,1.56
620,tucuma,,,,,,,,
621,port hedland,68,AU,1552431600.0,83.0,-20.31,118.58,302.15,3.1
622,singarayakonda,0,IN,1552434836.0,91.0,15.25,80.02,292.865,1.26
623,ugoofaaru,0,MV,1552434650.0,100.0,5.67,73.0,301.515,4.61
624,myaundzha,0,RU,1552434840.0,54.0,63.05,147.18,251.29,1.13
625,neuquen,0,AR,1552431600.0,47.0,-38.95,-68.06,298.15,5.1
626,artyom,36,RU,1552429800.0,38.0,43.36,132.19,268.15,1.0
627,sampit,88,ID,1552434847.0,99.0,-2.54,112.95,295.79,2.36
628,anahuac,90,US,1552434803.0,83.0,29.77,-94.68,294.26,4.6
629,pimentel,92,BR,1552434851.0,100.0,-3.7,-45.5,296.115,1.61
630,rocha,92,UY,1552434836.0,98.0,-34.48,-54.34,290.99,1.56
631,lebyazhye,75,RU,1552434635.0,86.0,59.96,29.42,270.15,3.0
632,dawlatabad,8,AF,1552434858.0,82.0,36.41,64.91,277.665,0.38
633,brae,92,GB,1552432800.0,86.0,60.4,-1.35,278.15,1.0
634,kushiro,64,JP,1552434862.0,82.0,43.11,144.15,272.615,1.61
635,jojoima,20,SL,1552434865.0,70.0,7.88,-10.79,299.915,3.03
636,sosnovo-ozerskoye,24,RU,1552434867.0,75.0,52.53,111.54,263.14,5.48
637,buloh kasap,75,MY,1552431600.0,88.0,2.55,102.76,299.15,1.5
638,waipawa,64,NZ,1552433656.0,74.0,-39.94,176.59,295.37,6.21
639,yurimaguas,40,PE,1552431600.0,310.0,-5.9,-76.1,282.15,0.81
640,surt,80,LY,1552434876.0,84.0,31.21,16.59,287.515,12.48
641,pingdingshan,80,CN,1552434878.0,50.0,33.74,113.3,280.04,3.13
642,palu,24,ID,1552434880.0,73.0,-0.9,119.87,294.915,0.91
643,bredy,56,RU,1552434882.0,93.0,52.43,60.33,274.115,6.28
644,outlook,88,CA,1552434456.0,85.0,51.48,-107.04,274.82,2.73
645,liberia,0,CR,1552434392.0,35.0,10.63,-85.44,305.15,10.8
646,rio gallegos,0,AR,1552431600.0,70.0,-51.62,-69.22,282.15,6.7
647,vershino-darasunskiy,32,RU,1552434891.0,65.0,52.35,115.52,263.54,2.48
648,llaillay,90,CL,1552434867.0,87.0,-32.84,-70.95,300.15,5.1
649,myrtle grove,1,US,1552434781.0,63.0,33.31,-91.27,292.15,2.6
650,te anau,92,NZ,1552434898.0,94.0,-45.41,167.72,289.615,3.91
651,keetmanshoop,0,NA,1552434900.0,33.0,-26.57,18.15,287.14,2.68
652,can tho,0,VN,1552431600.0,100.0,10.04,105.78,297.15,2.36
653,boyolangu,44,ID,1552434904.0,92.0,-8.09,111.9,296.24,1.68
